,Road,LRPName,Lat,Lon,Chainage,Description,Length,Cat,Next Node,Add On Process
0,Z4609,LRPS,24.9821104,90.1762493,0.0,0,0.0,0,LRPSa,BlankProcess
1,Z4609,LRPSa,24.984083,90.1726382,0.43799999999999994,0,0.0,0,LRPSc,BlankProcess
2,Z4609,LRPSc,24.9849141126334,90.1712996768683,0.615,FERUSHA CULVERT,2.0,B,LRPSd,BridgesDelay
3,Z4609,LRPSd,24.9854447099644,90.1704451395017,0.728,FERUSHA CUVERT,3.0,B,LRP001,BridgesDelay
4,Z4609,LRP001,24.9867219,90.1683882,1.0,0,0.0,0,LRP001a,BlankProcess
5,Z4609,LRP001a,24.988499700000002,90.1677493,1.272,0,0.0,0,LRP001b,BlankProcess
6,Z4609,LRP001b,24.9891663,90.16411109999999,1.6840000000000002,0,0.0,0,LRPE,BlankProcess
7,Z4609,LRPE,24.9897497,90.16375,1.78,0,0.0,0,PreRome,BlankProcess
