,Road,LRPName,Lat,Lon,Chainage,Description,Length,Cat,Next Node,Add On Process
0,Z8429,LRPS,22.9081389,89.9014167,0.0,0,0.0,0,LRPSa,BlankProcess
1,Z8429,LRPSa,22.9025556,89.8981386,0.68,0,0.0,0,LRPSb,BlankProcess
2,Z8429,LRPSb,22.9024167,89.8979719,0.695,0,0.0,0,LRPSc,BlankProcess
3,Z8429,LRPSc,22.900777800000004,89.8968886,0.95,0,0.0,0,LRP001,BlankProcess
4,Z8429,LRP001,22.8997497,89.8963886,1.0,0,0.0,0,LRPE,BlankProcess
5,Z8429,LRPE,22.897388600000003,89.8907774,1.75,0,0.0,0,PreRome,BlankProcess
