,Road,LRPName,Lat,Lon,Chainage,Description,Length,Cat,Next Node,Add On Process
0,Z2009,LRPS,24.273638199999997,91.4723604,0.0,0,0.0,0,LRPSa,BlankProcess
1,Z2009,LRPSa,24.2761382,91.470416,0.35,0,0.0,0,LRPSb,BlankProcess
2,Z2009,LRPSb,24.2767296584615,91.4699681353846,0.43,.,3.0,A,LRP001,BridgesDelay
3,Z2009,LRP001,24.2809438,91.4667771,1.0,0,0.0,0,LRP001a,BlankProcess
4,Z2009,LRP001a,24.2816382,91.46625,1.085,0,0.0,0,LRP001b,BlankProcess
5,Z2009,LRP001b,24.2841663,91.46433329999999,1.4369999999999998,0,0.0,0,LRP002,BlankProcess
6,Z2009,LRP002,24.288444100000003,91.4610833,2.0,0,0.0,0,LRP002a,BlankProcess
7,Z2009,LRP002a,24.2936386,91.4571389,2.7039999999999997,0,0.0,0,LRPE,BlankProcess
8,Z2009,LRPE,24.295388600000003,91.4558056,2.905,0,0.0,0,PreRome,BlankProcess
