,Road,LRPName,Lat,Lon,Chainage,Description,Length,Cat,Next Node,Add On Process
0,N605,LRPS,24.368443799999998,88.5811104,0.0,0,0.0,0,LRPSa,BlankProcess
1,N605,LRPSa,24.3718327,88.5823604,0.4,0,0.0,0,LRP001,BlankProcess
2,N605,LRP001,24.3765271,88.58538859999999,1.0,0,0.0,0,LRP001a,BlankProcess
3,N605,LRP001a,24.376832699999998,88.5864163,1.1420000000000001,0,0.0,0,LRP001b,BlankProcess
4,N605,LRP001b,24.3766382,88.5888052,1.39,0,0.0,0,LRP001c,BlankProcess
5,N605,LRP001c,24.375943799999998,88.59305520000001,1.835,0,0.0,0,LRP002,BlankProcess
6,N605,LRP002,24.375666,88.59472190000001,2.0,0,0.0,0,LRP002a,BlankProcess
7,N605,LRP002a,24.3747771,88.60027779999999,2.572,0,0.0,0,LRPE,BlankProcess
8,N605,LRPE,24.3745549,88.6040556,2.96,0,0.0,0,PreRome,BlankProcess
