,Road,LRPName,Lat,Lon,Chainage,Description,Length,Cat,Next Node,Add On Process
0,Z8606,LRPS,23.2559722,90.38802740000001,0.0,0,0.0,0,LRP001,BlankProcess
1,Z8606,LRP001,23.2568889,90.3883052,0.125,0,0.0,0,LRP001a,BlankProcess
2,Z8606,LRP001a,23.258055600000002,90.38883299999999,0.261,0,0.0,0,LRP001b,BlankProcess
3,Z8606,LRP001b,23.258194399999997,90.38888859999999,0.27699999999999997,0,0.0,0,LRP001c,BlankProcess
4,Z8606,LRP001c,23.261416699999998,90.38988859999999,0.649,0,0.0,0,LRP001d,BlankProcess
5,Z8606,LRP001d,23.2626111,90.3901386,0.794,0,0.0,0,LRPE,BlankProcess
6,Z8606,LRPE,23.2636389,90.39016629999999,0.9,0,0.0,0,PreRome,BlankProcess
