,Road,LRPName,Lat,Lon,Chainage,Description,Length,Cat,Next Node,Add On Process
0,Z6810,LRPS,24.775610399999998,88.7019167,0.0,0,0.0,0,LRPSa,BlankProcess
1,Z6810,LRPSa,24.772777100000003,88.7040833,0.47,0,0.0,0,LRPSb,BlankProcess
2,Z6810,LRPSb,24.7693604,88.7059444,0.885,0,0.0,0,LRPSc,BlankProcess
3,Z6810,LRPSc,24.7692263521739,88.7060168695652,0.9,.,1.0,A,LRP001,BridgesDelay
4,Z6810,LRP001,24.7683327,88.7065,1.0,0,0.0,0,LRP001a,BlankProcess
5,Z6810,LRP001a,24.7667216,88.70736109999999,1.212,0,0.0,0,LRP002,BlankProcess
6,Z6810,LRP002,24.759916699999998,88.7098333,2.08,0,0.0,0,LRPE,BlankProcess
7,Z6810,LRPE,24.7586667,88.7138333,2.5,0,0.0,0,PreRome,BlankProcess
