,Road,LRPName,Lat,Lon,Chainage,Description,Length,Cat,Next Node,Add On Process
0,Z7059,LRPS,23.093444100000003,89.25075,0.0,0,0.0,0,LRPSa,BlankProcess
1,Z7059,LRPSa,23.0933608,89.2505,0.021,0,0.0,0,LRPSb,BlankProcess
2,Z7059,LRPSb,23.0932497,89.25022220000001,0.055999999999999994,0,0.0,0,LRP001,BlankProcess
3,Z7059,LRP001,23.091777399999998,89.2418608,1.0,0,0.0,0,LRPE,BlankProcess
4,Z7059,LRPE,23.091888600000004,89.2389997,1.3,0,0.0,0,PreRome,BlankProcess
