,Road,LRPName,Lat,Lon,Chainage,Description,Length,Cat,Next Node,Add On Process
0,Z5559,LRPS,25.3178327,89.6013889,0.0,0,0.0,0,LRPSa,BlankProcess
1,Z5559,LRPSa,25.3212771,89.6041111,0.467,0,0.0,0,LRPSb,BlankProcess
2,Z5559,LRPSb,25.3217216,89.6044722,0.528,0,0.0,0,LRPSc,BlankProcess
3,Z5559,LRPSc,25.321777100000002,89.6045278,0.5429999999999999,0,0.0,0,LRPSd,BlankProcess
4,Z5559,LRPSd,25.323916,89.60625,0.8340000000000001,0,0.0,0,LRPSe,BlankProcess
5,Z5559,LRPSe,25.3251104,89.60713890000001,0.983,0,0.0,0,LRP001,BlankProcess
6,Z5559,LRP001,25.325166,89.60725,1.0,0,0.0,0,LRPE,BlankProcess
7,Z5559,LRPE,25.3264716,89.6083611,1.2,0,0.0,0,PreRome,BlankProcess
