,Road,LRPName,Lat,Lon,Chainage,Description,Length,Cat,Next Node,Add On Process
0,Z5009,LRPS,25.8951663,88.8407497,0.0,0,0.0,0,LRPSa,BlankProcess
1,Z5009,LRPSa,25.892471899999997,88.8406941,0.285,0,0.0,0,LRPSb,BlankProcess
2,Z5009,LRPSb,25.887860800000002,88.8404719,0.8029999999999999,0,0.0,0,LRP001,BlankProcess
3,Z5009,LRP001,25.8861663,88.8403608,1.0,0,0.0,0,LRP001a,BlankProcess
4,Z5009,LRP001a,25.8829716,88.84005520000001,1.36,0,0.0,0,LRPE,BlankProcess
5,Z5009,LRPE,25.8821938,88.83997190000001,1.44,0,0.0,0,PreRome,BlankProcess
