,Road,LRPName,Lat,Lon,Chainage,Description,Length,Cat,Next Node,Add On Process
0,Z5074,LRPS,25.426588955555573,89.31141671111106,0.0,0,0.0,0,LRPSa,BlankProcess
1,Z5074,LRPSa,25.4179993,89.3080556,0.968,0,0.0,0,LRP001,BlankProcess
2,Z5074,LRP001,25.417715344444453,89.30794448888891,1.0,0,0.0,0,LRP001a,BlankProcess
3,Z5074,LRP001a,25.4173604,89.3078056,1.04,0,0.0,0,LRPE,BlankProcess
4,Z5074,LRPE,25.4166938,89.3075,1.5,0,0.0,0,PreRome,BlankProcess
