,Road,LRPName,Lat,Lon,Chainage,Description,Length,Cat,Next Node,Add On Process
0,Z2048,LRPS,23.896471899999998,90.5916108,0.0,0,0.0,0,LRPSa,BlankProcess
1,Z2048,LRPSa,23.898888600000003,90.58877740000001,0.39399999999999996,0,0.0,0,LRP001,BlankProcess
2,Z2048,LRP001,23.9013889,90.5837774,0.9740000000000001,0,0.0,0,LRP001a,BlankProcess
3,Z2048,LRP001a,23.9019722,90.5821938,1.17,0,0.0,0,LRP001b,BlankProcess
4,Z2048,LRP001b,23.901999999999997,90.58202709999999,1.19,0,0.0,0,LRP001c,BlankProcess
5,Z2048,LRP001c,23.9040556,90.5782493,1.62,0,0.0,0,LRP002,BlankProcess
6,Z2048,LRP002,23.905777800000003,90.5757771,2.0,0,0.0,0,LRP003,BlankProcess
7,Z2048,LRP003,23.913583300000003,90.56874930000001,3.0,0,0.0,0,LRPE,BlankProcess
8,Z2048,LRPE,23.915722199999998,90.56733270000001,3.4539999999999997,0,0.0,0,PreRome,BlankProcess
