,Road,LRPName,Lat,Lon,Chainage,Description,Length,Cat,Next Node,Add On Process
0,Z8504,LRPS,22.906527800000003,89.8966108,0.0,0,0.0,0,LRPSa,BlankProcess
1,Z8504,LRPSa,22.908222199999997,89.89772190000001,0.3,0,0.0,0,LRPSb,BlankProcess
2,Z8504,LRPSb,22.908222199999997,89.8976386,0.308,0,0.0,0,LRPSc,BlankProcess
3,Z8504,LRPSc,22.9059444,89.8931108,0.57,0,0.0,0,LRPSd,BlankProcess
4,Z8504,LRPSd,22.9058611,89.8931941,0.585,0,0.0,0,LRP001,BlankProcess
5,Z8504,LRP001,22.902222199999997,89.8894441,1.0,0,0.0,0,LRP001a,BlankProcess
6,Z8504,LRP001a,22.8974997,89.890833,1.57,0,0.0,0,LRPE,BlankProcess
7,Z8504,LRPE,22.894944100000004,89.89055520000001,1.87,0,0.0,0,PreRome,BlankProcess
