,Road,LRPName,Lat,Lon,Chainage,Description,Length,Cat,Next Node,Add On Process
0,Z8048,LRPS,22.7824993,90.19541629999999,0.0,0,0.0,0,LRPSa,BlankProcess
1,Z8048,LRPSa,22.790277399999997,90.1962497,0.9,0,0.0,0,LRPSb,BlankProcess
2,Z8048,LRPSb,22.790414967857146,90.19634857738096,0.9129999999999999,0,0.0,0,LRP001,BlankProcess
3,Z8048,LRP001,22.7911663,90.1968886,0.9840000000000001,0,0.0,0,LRP002,BlankProcess
4,Z8048,LRP002,22.799583,90.1947219,1.984,0,0.0,0,LRP002a,BlankProcess
5,Z8048,LRP002a,22.7999163,90.1947219,2.024,0,0.0,0,LRP002b,BlankProcess
6,Z8048,LRP002b,22.8020278,90.1937219,2.2840000000000003,0,0.0,0,LRP002c,BlankProcess
7,Z8048,LRP002c,22.806388899999998,90.19405520000001,2.77,0,0.0,0,LRP002d,BlankProcess
8,Z8048,LRP002d,22.8065556,90.19405520000001,2.779,0,0.0,0,0,BlankProcess
